[
  {
    "id": "CSPP_001",
    "name": "Sunshine Preschool",
    "address": "123 Main Street",
    "city": "San Francisco",
    "state": "CA",
    "zip_code": "94110",
    "county": "San Francisco",
    "phone": "(415) 555-1234",
    "website": "https://www.example.com/sunshine",
    "license_number": "123456789",
    "capacity": 60,
    "ages": "3-5 years",
    "program_type": "CSPP",
    "hours": "7:30 AM - 6:00 PM",
    "rating": 4.7,
    "reviewCount": 42,
    "latitude": 37.7749,
    "longitude": -122.4194,
    "curriculum": "Play-based learning",
    "features": ["Outdoor playground", "Meal service", "Bilingual staff"],
    "last_updated": "2025-04-01"
  },
  {
    "id": "CSPP_002",
    "name": "Little Explorers Preschool",
    "address": "456 Oak Avenue",
    "city": "Los Angeles",
    "state": "CA",
    "zip_code": "90001",
    "county": "Los Angeles",
    "phone": "(213) 555-6789",
    "website": "https://www.example.com/littleexplorers",
    "license_number": "987654321",
    "capacity": 80,
    "ages": "2-5 years",
    "program_type": "CSPP",
    "hours": "8:00 AM - 5:30 PM",
    "rating": 4.5,
    "reviewCount": 78,
    "latitude": 34.0522,
    "longitude": -118.2437,
    "curriculum": "Montessori-inspired",
    "features": ["Indoor gym", "Music program", "Garden"],
    "last_updated": "2025-04-02"
  },
  {
    "id": "CSPP_003",
    "name": "Rainbow Kids Learning Center",
    "address": "789 Pine Street",
    "city": "San Diego",
    "state": "CA",
    "zip_code": "92101",
    "county": "San Diego",
    "phone": "(619) 555-4321",
    "website": "https://www.example.com/rainbowkids",
    "license_number": "456789123",
    "capacity": 45,
    "ages": "3-5 years",
    "program_type": "CSPP",
    "hours": "7:00 AM - 6:00 PM",
    "rating": 4.9,
    "reviewCount": 53,
    "latitude": 32.7157,
    "longitude": -117.1611,
    "curriculum": "Reggio Emilia approach",
    "features": ["Art studio", "Science lab", "Multilingual program"],
    "last_updated": "2025-04-03"
  },
  {
    "id": "CSPP_004",
    "name": "Bright Beginnings Preschool",
    "address": "321 Cedar Boulevard",
    "city": "Sacramento",
    "state": "CA",
    "zip_code": "95814",
    "county": "Sacramento",
    "phone": "(916) 555-8765",
    "website": "https://www.example.com/brightbeginnings",
    "license_number": "741852963",
    "capacity": 55,
    "ages": "2.5-5 years",
    "program_type": "CSPP",
    "hours": "7:30 AM - 5:45 PM",
    "rating": 4.3,
    "reviewCount": 37,
    "latitude": 38.5816,
    "longitude": -121.4944,
    "curriculum": "Creative curriculum",
    "features": ["Library corner", "Computer center", "Field trips"],
    "last_updated": "2025-04-04"
  },
  {
    "id": "CSPP_005",
    "name": "Little Scholars Academy",
    "address": "567 Maple Drive",
    "city": "Fresno",
    "state": "CA",
    "zip_code": "93721",
    "county": "Fresno",
    "phone": "(559) 555-2468",
    "website": "https://www.example.com/littlescholars",
    "license_number": "369258147",
    "capacity": 70,
    "ages": "3-6 years",
    "program_type": "CSPP",
    "hours": "8:00 AM - 6:00 PM",
    "rating": 4.6,
    "reviewCount": 62,
    "latitude": 36.7378,
    "longitude": -119.7871,
    "curriculum": "STEM-focused",
    "features": ["Technology lab", "Nature trails", "Parent workshops"],
    "last_updated": "2025-04-05"
  }
] 